Name,Region_1depth_Name,Region_2depth_Name,Region_3depth_Name,Category,Latitude,Longitude
참소박사정육식당,전북특별자치도,전주시 덕진구,반월동,"음식점 > 한식 > 육류,고기",35.87464288,127.0706286
교촌치킨 동산조촌점,전북특별자치도,전주시 덕진구,반월동,음식점 > 치킨 > 교촌치킨,35.87556254,127.0759093
목초마을한우돼야지,전북특별자치도,전주시 덕진구,반월동,"음식점 > 한식 > 육류,고기",35.87417882,127.0734995
국시카페,전북특별자치도,전주시 덕진구,고랑동,음식점 > 한식 > 국수,35.87701396,127.0780922
뽀대갈비,전북특별자치도,전주시 덕진구,여의동2가,"음식점 > 한식 > 육류,고기 > 갈비",35.87156473,127.0784844
바다사자1983,전북특별자치도,전주시 덕진구,반월동,음식점 > 한식,35.88529186,127.0768422
낙원떡볶이,전북특별자치도,전주시 덕진구,여의동2가,음식점 > 분식 > 떡볶이,35.87314272,127.0813595
서가낙지 여의반월점,전북특별자치도,전주시 덕진구,반월동,"음식점 > 한식 > 해물,생선",35.87301093,127.0747442
갑부도시락 전주점,전북특별자치도,전주시 덕진구,여의동2가,음식점 > 도시락 > 배달도시락,35.87364994,127.0761378
이것이김밥이다,전북특별자치도,전주시 덕진구,반월동,음식점 > 분식,35.87336759,127.0751254
전주동산촌식당,전북특별자치도,전주시 덕진구,고랑동,음식점 > 한식 > 국수,35.8749509,127.084876
부송국수 전주동산점,전북특별자치도,전주시 덕진구,고랑동,음식점 > 한식 > 국수,35.87702126,127.0779593
가막골칡냉면 동산점,전북특별자치도,전주시 덕진구,여의동2가,음식점 > 한식 > 냉면,35.87257102,127.0804708
다사랑치킨피자 전주동산점,전북특별자치도,전주시 덕진구,여의동2가,음식점 > 치킨 > 다사랑치킨,35.87186512,127.0794492
후켄 반월동산점,전북특별자치도,전주시 덕진구,반월동,음식점 > 치킨,35.8737438,127.0730197
신청강중화요리,전북특별자치도,전주시 덕진구,반월동,음식점 > 중식 > 중국요리,35.87462351,127.0713849
김돈이 반월점,전북특별자치도,전주시 덕진구,반월동,"음식점 > 한식 > 육류,고기",35.87363533,127.0735577
60계치킨 전북전주여의반월점,전북특별자치도,전주시 덕진구,여의동2가,음식점 > 치킨 > 60계,35.87213524,127.0798348
소문마라탕 본점,전북특별자치도,전주시 덕진구,반월동,음식점 > 중식,35.8734799,127.0742175
BBQ 전주동산점,전북특별자치도,전주시 덕진구,여의동2가,음식점 > 치킨 > BBQ,35.87312698,127.0806452
한마음정육식당 전주반월점,전북특별자치도,전주시 덕진구,반월동,"음식점 > 한식 > 육류,고기 > 한마음정육식당",35.87445603,127.0726272
진성쟁반짜장,전북특별자치도,전주시 덕진구,여의동2가,음식점 > 중식 > 중국요리,35.87339543,127.0821548
한솔본가,전북특별자치도,전주시 덕진구,여의동2가,음식점 > 한식,35.87153294,127.0802306
오동태마을 반월점,전북특별자치도,전주시 덕진구,반월동,"음식점 > 한식 > 해물,생선",35.8737472,127.0733696
회도리수산,전북특별자치도,전주시 덕진구,여의동2가,"음식점 > 한식 > 해물,생선 > 회",35.87314721,127.0813794
여의동칼국수,전북특별자치도,전주시 덕진구,반월동,음식점 > 한식 > 국수,35.87361238,127.0756838
뼈감집,전북특별자치도,전주시 덕진구,여의동2가,음식점 > 한식 > 감자탕,35.871495,127.0790003
태정기사식당,전북특별자치도,전주시 덕진구,고랑동,음식점 > 기사식당,35.87667279,127.0815557
우가양평해장국 전주동산점,전북특별자치도,전주시 덕진구,여의동2가,음식점 > 한식 > 해장국 > 우가양평해장국,35.87116507,127.0777266
BHC치킨 전주동산반월점,전북특별자치도,전주시 덕진구,반월동,음식점 > 치킨 > BHC치킨,35.87455463,127.0720271
대동국수 동산점,전북특별자치도,전주시 덕진구,여의동2가,음식점 > 한식 > 국수,35.87186871,127.0794691
회마루,전북특별자치도,전주시 덕진구,여의동2가,"음식점 > 한식 > 해물,생선 > 회",35.87267096,127.0806226
맥시칸치킨 반월점,전북특별자치도,전주시 덕진구,여의동2가,음식점 > 치킨 > 맥시칸치킨,35.87419968,127.0761826
쟈네뜨 동산점,전북특별자치도,전주시 덕진구,여의동2가,"음식점 > 술집 > 호프,요리주점",35.87308547,127.0807238
이삭토스트 전주반월점,전북특별자치도,전주시 덕진구,반월동,음식점 > 간식 > 토스트,35.87415869,127.0725084
자매뚝배기,전북특별자치도,전주시 덕진구,반월동,음식점 > 한식,35.87445783,127.0726283
굽네치킨 여의반월점,전북특별자치도,전주시 덕진구,반월동,음식점 > 치킨 > 굽네치킨,35.8739232,127.0744084
백세족발,전북특별자치도,전주시 덕진구,반월동,"음식점 > 한식 > 육류,고기 > 족발,보쌈",35.87337211,127.0751011
중화루,전북특별자치도,전주시 덕진구,여의동2가,음식점 > 중식 > 중국요리,35.87284228,127.0804932
두리둥둥,전북특별자치도,전주시 덕진구,여의동2가,음식점 > 한식,35.8726286,127.080617
아구세상 여의점,전북특별자치도,전주시 덕진구,여의동2가,"음식점 > 한식 > 해물,생선 > 아구",35.8711632,127.0778296
오남매백반,전북특별자치도,전주시 덕진구,고랑동,음식점 > 한식,35.87714033,127.0777945
깻잎분식 동산점,전북특별자치도,전주시 덕진구,여의동2가,음식점 > 분식,35.87286306,127.0804268
신가네손칼국수,전북특별자치도,전주시 덕진구,고랑동,음식점 > 한식 > 국수 > 칼국수,35.87663259,127.0769125
가장맛있는족발 전주동산반월점,전북특별자치도,전주시 덕진구,여의동2가,"음식점 > 한식 > 육류,고기 > 족발,보쌈 > 가장맛있는족발",35.87166257,127.0790979
불땡고기주는국수집 본점,전북특별자치도,전주시 덕진구,팔복동2가,음식점 > 한식 > 국수,35.86188357,127.0862261
육희당,전북특별자치도,전주시 덕진구,팔복동2가,"음식점 > 한식 > 육류,고기",35.86079899,127.0879787
자연머금한식뷔페,전북특별자치도,전주시 덕진구,팔복동2가,음식점 > 뷔페 > 한식뷔페,35.86069473,127.0888233
제일문짬뽕,전북특별자치도,전주시 덕진구,팔복동2가,음식점 > 중식 > 중국요리,35.86136725,127.0885628
신대성반점,전북특별자치도,전주시 덕진구,팔복동2가,음식점 > 중식,35.85494725,127.0890571
북전주식당,전북특별자치도,전주시 덕진구,팔복동2가,"음식점 > 한식 > 육류,고기",35.8631898,127.0845147
광주리가든,전북특별자치도,전주시 덕진구,팔복동2가,"음식점 > 한식 > 사철탕,영양탕",35.86298642,127.0840882
운암정,전북특별자치도,전주시 덕진구,팔복동2가,음식점 > 한식,35.86144112,127.087376
요리왕,전북특별자치도,전주시 덕진구,팔복동2가,음식점 > 한식,35.8597178,127.0911815
북전주국수,전북특별자치도,전주시 덕진구,팔복동2가,음식점 > 한식 > 국수,35.85992419,127.0923553
참한우명가식당,전북특별자치도,전주시 덕진구,팔복동2가,"음식점 > 한식 > 육류,고기",35.86138257,127.0885683
김가네얼큰이국밥,전북특별자치도,전주시 덕진구,팔복동3가,음식점 > 한식 > 국밥,35.85633458,127.0849138
전일식당,전북특별자치도,전주시 덕진구,팔복동2가,음식점 > 뷔페 > 한식뷔페,35.85429484,127.0925016
서해가든,전북특별자치도,전주시 덕진구,팔복동2가,음식점 > 한식,35.85511334,127.0887119
초원식당,전북특별자치도,전주시 덕진구,여의동,음식점 > 한식,35.85814096,127.080599
정회관,전북특별자치도,전주시 덕진구,팔복동2가,음식점 > 한식,35.85550657,127.0883182
빙그레아이스크림지점,전북특별자치도,전주시 덕진구,팔복동1가,음식점 > 간식 > 아이스크림,35.85889941,127.0969974
토지가든,전북특별자치도,전주시 덕진구,팔복동2가,음식점 > 한식,35.85517475,127.0885393
국일식당,전북특별자치도,전주시 덕진구,팔복동2가,음식점 > 한식,35.85361485,127.0919074
신한푸드,전북특별자치도,전주시 덕진구,팔복동1가,음식점 > 분식,35.86181006,127.0996936
공단식당,전북특별자치도,전주시 덕진구,팔복동3가,음식점 > 한식,35.85294231,127.0848393
새마을식당,전북특별자치도,전주시 덕진구,팔복동4가,음식점 > 한식,35.867313,127.0998311
뽀빠이수산시장,전북특별자치도,전주시 덕진구,송천동2가,"음식점 > 한식 > 해물,생선 > 회",35.86976512,127.108378
천일제지 2공장식당,전북특별자치도,전주시 덕진구,팔복동4가,음식점 > 한식,35.86657177,127.1045448
수제식당,전북특별자치도,전주시 덕진구,팔복동4가,음식점 > 한식,35.86629527,127.1011663
여정식당,전북특별자치도,전주시 덕진구,팔복동4가,음식점 > 한식,35.86220869,127.1015231
신한푸드,전북특별자치도,전주시 덕진구,팔복동1가,음식점 > 분식,35.86181006,127.0996936
솔내식당,전북특별자치도,전주시 덕진구,송천동2가,음식점 > 한식,35.86973728,127.1082672
목포뻘낙지,전북특별자치도,전주시 덕진구,전미동2가,"음식점 > 한식 > 해물,생선",35.88274998,127.1087943
곤드레에반하다,전북특별자치도,전주시 덕진구,전미동2가,음식점 > 한식,35.88821127,127.1060872
미산짬뽕,전북특별자치도,전주시 덕진구,전미동2가,음식점 > 중식 > 중국요리,35.88434281,127.1142675
비행장가든,전북특별자치도,전주시 덕진구,송천동2가,"음식점 > 한식 > 육류,고기 > 오리",35.87257694,127.1133536
오후하자포차,전북특별자치도,전주시 덕진구,송천동2가,음식점,35.87306743,127.1140841
호남각,전북특별자치도,전주시 덕진구,송천동2가,음식점 > 한식 > 한정식,35.86502414,127.1136662
마이산피순대 본점,전북특별자치도,전주시 덕진구,송천동1가,음식점 > 한식 > 순대,35.86605381,127.1150982
상무초밥 전주송천점,전북특별자치도,전주시 덕진구,송천동1가,"음식점 > 일식 > 초밥,롤",35.86639563,127.1212637
소담촌 전주송천점,전북특별자치도,전주시 덕진구,송천동2가,음식점 > 샤브샤브,35.86801516,127.1148751
라보테 송천점,전북특별자치도,전주시 덕진구,송천동1가,음식점 > 양식,35.8653934,127.1213054
화산춘,전북특별자치도,전주시 덕진구,송천동2가,"음식점 > 한식 > 육류,고기 > 갈비",35.86387301,127.1221678
달빛에구운고등어 송천점,전북특별자치도,전주시 덕진구,송천동2가,"음식점 > 한식 > 해물,생선",35.86937042,127.1188046
송천참옻닭,전북특별자치도,전주시 덕진구,송천동1가,"음식점 > 한식 > 육류,고기 > 닭요리",35.86484874,127.1198131
착한낙지 덕진구직영점,전북특별자치도,전주시 덕진구,송천동2가,"음식점 > 한식 > 해물,생선",35.86421288,127.1211829
스시아시타 송천점,전북특별자치도,전주시 덕진구,송천동2가,"음식점 > 일식 > 초밥,롤",35.86944933,127.121017
동해회집,전북특별자치도,전주시 덕진구,송천동2가,"음식점 > 한식 > 해물,생선 > 회",35.86465897,127.1220981
고래짬뽕,전북특별자치도,전주시 덕진구,송천동2가,음식점 > 중식 > 중국요리,35.86518865,127.1121994
흑산도횟집,전북특별자치도,전주시 덕진구,송천동2가,"음식점 > 한식 > 해물,생선 > 회",35.86747702,127.1159019
자금성,전북특별자치도,전주시 덕진구,송천동2가,음식점 > 중식 > 중국요리,35.867042,127.1219866
강남칼국수,전북특별자치도,전주시 덕진구,송천동1가,음식점 > 한식 > 국수 > 칼국수,35.86365195,127.1160646
샤브연리지 전주송천점,전북특별자치도,전주시 덕진구,송천동2가,음식점 > 샤브샤브,35.86937734,127.1217942
고기녹소 송천점,전북특별자치도,전주시 덕진구,송천동2가,"음식점 > 한식 > 육류,고기 > 삼겹살",35.87015727,127.1232282
하서방 송천점,전북특별자치도,전주시 덕진구,송천동2가,음식점 > 한식 > 국수 > 칼국수,35.86737727,127.1146661
고래면옥 에코시티점,전북특별자치도,전주시 덕진구,송천동2가,"음식점 > 한식 > 육류,고기 > 갈비",35.87156562,127.1243942
십장생,전북특별자치도,전주시 덕진구,송천동2가,"음식점 > 한식 > 육류,고기 > 갈비",35.86444042,127.1133642
랍스타하우스 본점,전북특별자치도,전주시 덕진구,송천동2가,음식점 > 양식 > 해산물 > 바닷가재,35.86947472,127.1235228
대한참치,전북특별자치도,전주시 덕진구,송천동1가,음식점 > 일식 > 참치회,35.8655042,127.1168114
다미참치,전북특별자치도,전주시 덕진구,송천동1가,음식점 > 일식 > 참치회,35.86515935,127.1155398
남다른감자탕 전주송천점,전북특별자치도,전주시 덕진구,송천동1가,음식점 > 한식 > 감자탕 > 남다른감자탕,35.86678237,127.1147361
계륵숯불닭갈비,전북특별자치도,전주시 덕진구,송천동2가,"음식점 > 한식 > 육류,고기 > 닭요리",35.86717851,127.1224607
바다횟집,전북특별자치도,전주시 덕진구,송천동2가,"음식점 > 한식 > 해물,생선 > 회",35.86648669,127.1221275
솔가숯불갈비 송천점,전북특별자치도,전주시 덕진구,송천동1가,"음식점 > 한식 > 육류,고기 > 갈비",35.86509015,127.1199331
와룡소바,전북특별자치도,전주시 덕진구,송천동2가,음식점 > 한식 > 국수,35.86489513,127.1128555
지평선한돈 전주점,전북특별자치도,전주시 덕진구,송천동2가,"음식점 > 한식 > 육류,고기",35.86896532,127.1155586
샤브잇데이,전북특별자치도,전주시 덕진구,송천동2가,음식점 > 샤브샤브,35.87162503,127.1244685
하누야,전북특별자치도,전주시 덕진구,송천동2가,"음식점 > 한식 > 육류,고기",35.87099779,127.1154109
맥도날드 전주송천DT점,전북특별자치도,전주시 덕진구,송천동2가,음식점 > 패스트푸드 > 맥도날드,35.86502321,127.1219714
현대옥 송천농수산시장점,전북특별자치도,전주시 덕진구,송천동2가,음식점 > 한식 > 국밥 > 전주현대옥,35.86804713,127.119065
장어명가청산 송천점,전북특별자치도,전주시 덕진구,송천동1가,"음식점 > 한식 > 해물,생선 > 장어",35.86364867,127.1157192
소주한잔돼지,전북특별자치도,전주시 덕진구,송천동1가,"음식점 > 한식 > 육류,고기",35.8651704,127.1162241
아서원1920 전주본점,전북특별자치도,전주시 덕진구,송천동2가,음식점 > 중식 > 중국요리,35.86708992,127.1209437
석산참숯가마삼겹살 송천점,전북특별자치도,전주시 덕진구,송천동2가,"음식점 > 한식 > 육류,고기 > 삼겹살",35.8661923,127.1235753
장어야놀자,전북특별자치도,전주시 덕진구,송천동1가,"음식점 > 한식 > 해물,생선 > 장어",35.86511139,127.1203229
산이솔이야,전북특별자치도,전주시 덕진구,송천동1가,"음식점 > 일식 > 돈까스,우동",35.86298338,127.1158976
지니펍,전북특별자치도,전주시 덕진구,송천동2가,"음식점 > 술집 > 호프,요리주점",35.86785542,127.1223898
도싯골묵은지삼겹살 송천동직영점,전북특별자치도,전주시 덕진구,송천동2가,"음식점 > 한식 > 육류,고기 > 삼겹살",35.86618603,127.1226541
해미별궁 본점,전북특별자치도,전주시 덕진구,송천동1가,"음식점 > 한식 > 해물,생선",35.86469665,127.1195815
양누리 송천점,전북특별자치도,전주시 덕진구,송천동1가,음식점 > 중식 > 양꼬치,35.865167,127.1150748
진수곱창 송천점,전북특별자치도,전주시 덕진구,송천동2가,"음식점 > 한식 > 육류,고기 > 곱창,막창",35.86706668,127.1225359
중화정 송천점,전북특별자치도,전주시 덕진구,송천동2가,음식점 > 중식 > 양꼬치,35.86618693,127.1226541
호남각,전북특별자치도,전주시 덕진구,송천동2가,음식점 > 한식 > 한정식,35.86502414,127.1136662
화산춘,전북특별자치도,전주시 덕진구,송천동2가,"음식점 > 한식 > 육류,고기 > 갈비",35.86387301,127.1221678
착한낙지 덕진구직영점,전북특별자치도,전주시 덕진구,송천동2가,"음식점 > 한식 > 해물,생선",35.86421288,127.1211829
동해회집,전북특별자치도,전주시 덕진구,송천동2가,"음식점 > 한식 > 해물,생선 > 회",35.86465897,127.1220981
라보테 송천점,전북특별자치도,전주시 덕진구,송천동1가,음식점 > 양식,35.8653934,127.1213054
상무초밥 전주송천점,전북특별자치도,전주시 덕진구,송천동1가,"음식점 > 일식 > 초밥,롤",35.86639563,127.1212637
송천참옻닭,전북특별자치도,전주시 덕진구,송천동1가,"음식점 > 한식 > 육류,고기 > 닭요리",35.86484874,127.1198131
마이산피순대 본점,전북특별자치도,전주시 덕진구,송천동1가,음식점 > 한식 > 순대,35.86605381,127.1150982
KFC 전주송천점,전북특별자치도,전주시 덕진구,송천동2가,음식점 > 패스트푸드 > KFC,35.86415427,127.1221029
강남칼국수,전북특별자치도,전주시 덕진구,송천동1가,음식점 > 한식 > 국수 > 칼국수,35.86365195,127.1160646
한가람,전북특별자치도,전주시 덕진구,덕진동2가,"음식점 > 한식 > 육류,고기",35.85161514,127.1193859
맥도날드 전주송천DT점,전북특별자치도,전주시 덕진구,송천동2가,음식점 > 패스트푸드 > 맥도날드,35.86502321,127.1219714
산이솔이야,전북특별자치도,전주시 덕진구,송천동1가,"음식점 > 일식 > 돈까스,우동",35.86298338,127.1158976
계경목장 전주본점,전북특별자치도,전주시 덕진구,송천동1가,"음식점 > 한식 > 육류,고기",35.85648231,127.1189946
석산참숯가마삼겹살 송천점,전북특별자치도,전주시 덕진구,송천동2가,"음식점 > 한식 > 육류,고기 > 삼겹살",35.8661923,127.1235753
용소루,전북특별자치도,전주시 덕진구,송천동1가,음식점 > 중식 > 중국요리,35.86183222,127.1152227
솔가숯불갈비 송천점,전북특별자치도,전주시 덕진구,송천동1가,"음식점 > 한식 > 육류,고기 > 갈비",35.86509015,127.1199331
명륜진사갈비 전주송천점,전북특별자치도,전주시 덕진구,송천동1가,"음식점 > 한식 > 육류,고기 > 갈비 > 명륜진사갈비",35.85736897,127.120971
장어명가청산 송천점,전북특별자치도,전주시 덕진구,송천동1가,"음식점 > 한식 > 해물,생선 > 장어",35.86364867,127.1157192
콩나루콩나물국밥 송천점,전북특별자치도,전주시 덕진구,송천동1가,음식점 > 한식 > 국밥,35.8608786,127.1226061
황씨네대가추어탕,전북특별자치도,전주시 덕진구,송천동1가,"음식점 > 한식 > 해물,생선 > 추어",35.85746202,127.1180296
자금성,전북특별자치도,전주시 덕진구,송천동2가,음식점 > 중식 > 중국요리,35.867042,127.1219866
해미별궁 본점,전북특별자치도,전주시 덕진구,송천동1가,"음식점 > 한식 > 해물,생선",35.86469665,127.1195815
손가네바지락손칼국수 전주점,전북특별자치도,전주시 덕진구,송천동1가,음식점 > 한식 > 국수 > 칼국수,35.86099981,127.1221722
고귀,전북특별자치도,전주시 덕진구,송천동1가,"음식점 > 한식 > 육류,고기",35.8535773,127.1192604
장어야놀자,전북특별자치도,전주시 덕진구,송천동1가,"음식점 > 한식 > 해물,생선 > 장어",35.86511139,127.1203229
영아네밥상,전북특별자치도,전주시 덕진구,송천동1가,음식점 > 한식,35.85668507,127.1181004
마야복분자왕족발보쌈,전북특별자치도,전주시 덕진구,송천동1가,"음식점 > 한식 > 육류,고기 > 족발,보쌈",35.86373238,127.1167645
정성돌짬뽕 본점,전북특별자치도,전주시 덕진구,송천동1가,음식점 > 중식 > 중국요리,35.85805825,127.121147
김가네보쌈족발,전북특별자치도,전주시 덕진구,송천동2가,"음식점 > 한식 > 육류,고기 > 족발,보쌈",35.86570296,127.1235347
바다횟집,전북특별자치도,전주시 덕진구,송천동2가,"음식점 > 한식 > 해물,생선 > 회",35.86648669,127.1221275
동창갈비 본점,전북특별자치도,전주시 덕진구,송천동1가,"음식점 > 한식 > 육류,고기 > 갈비",35.86495183,127.1212571
킹아구해물찜,전북특별자치도,전주시 덕진구,송천동1가,"음식점 > 한식 > 해물,생선 > 아구",35.86335902,127.1170119
생생집,전북특별자치도,전주시 덕진구,송천동1가,음식점 > 한식,35.85986108,127.1171906
도싯골묵은지삼겹살 송천동직영점,전북특별자치도,전주시 덕진구,송천동2가,"음식점 > 한식 > 육류,고기 > 삼겹살",35.86618603,127.1226541
본죽&비빔밥cafe 전주송천점,전북특별자치도,전주시 덕진구,송천동1가,음식점 > 퓨전요리 > 퓨전한식 > 본죽&비빔밥cafe,35.8613572,127.1216878
라라코스트 전주송천점,전북특별자치도,전주시 덕진구,송천동1가,음식점 > 패밀리레스토랑,35.86411594,127.1277573
배스킨라빈스 전주송천점,전북특별자치도,전주시 덕진구,송천동1가,음식점 > 간식 > 아이스크림 > 배스킨라빈스,35.85990185,127.121514
중화정 송천점,전북특별자치도,전주시 덕진구,송천동2가,음식점 > 중식 > 양꼬치,35.86618693,127.1226541
가마골보신탕,전북특별자치도,전주시 덕진구,송천동1가,"음식점 > 한식 > 사철탕,영양탕",35.86074588,127.1164988
정담떡방,전북특별자치도,전주시 덕진구,송천동1가,"음식점 > 간식 > 떡,한과",35.86115356,127.1234081
김종구식맛치킨 송천센트럴점,전북특별자치도,전주시 덕진구,송천동1가,음식점 > 치킨,35.85513193,127.1192948
십장생,전북특별자치도,전주시 덕진구,송천동2가,"음식점 > 한식 > 육류,고기 > 갈비",35.86444042,127.1133642
고기싸롱 전주송천점,전북특별자치도,전주시 덕진구,송천동1가,"음식점 > 한식 > 육류,고기 > 고기싸롱",35.86543266,127.1208006
다원추어탕,전북특별자치도,전주시 덕진구,송천동1가,"음식점 > 한식 > 해물,생선 > 추어",35.86088092,127.1220923
고궁 전주본점,전북특별자치도,전주시 덕진구,덕진동2가,음식점 > 한식,35.85005952,127.1194411
한가람,전북특별자치도,전주시 덕진구,덕진동2가,"음식점 > 한식 > 육류,고기",35.85161514,127.1193859
족보설렁탕,전북특별자치도,전주시 덕진구,덕진동2가,음식점 > 한식 > 설렁탕,35.84951004,127.119148
짬뽕지존 덕진점,전북특별자치도,전주시 덕진구,덕진동1가,음식점 > 중식 > 중국요리,35.84354675,127.1233011
더담다 전북대본점,전북특별자치도,전주시 덕진구,덕진동1가,"음식점 > 일식 > 돈까스,우동",35.84484801,127.1260505
덕진헌,전북특별자치도,전주시 덕진구,덕진동1가,"음식점 > 한식 > 육류,고기",35.85081683,127.1227644
해이루 전북대본점,전북특별자치도,전주시 덕진구,덕진동1가,음식점 > 한식 > 감자탕,35.84371418,127.1252406
만족왕족발보쌈,전북특별자치도,전주시 덕진구,송천동1가,"음식점 > 한식 > 육류,고기 > 족발,보쌈",35.85157029,127.1209755
늘채움,전북특별자치도,전주시 덕진구,덕진동2가,음식점 > 한식,35.84654614,127.120628
야미 전북대점,전북특별자치도,전주시 덕진구,덕진동1가,"음식점 > 일식 > 돈까스,우동",35.84395806,127.1264431
옛날땡땡이상추튀김 북대1호점,전북특별자치도,전주시 덕진구,금암동,음식점 > 분식,35.84368631,127.1277422
슬기네가맥,전북특별자치도,전주시 덕진구,덕진동1가,"음식점 > 술집 > 호프,요리주점",35.8448966,127.1252646
모두랑즉석떡볶이,전북특별자치도,전주시 덕진구,덕진동1가,음식점 > 분식 > 떡볶이,35.84420321,127.1264325
팀 전북대점,전북특별자치도,전주시 덕진구,금암동,음식점 > 양식,35.84332886,127.1282641
흐엉꾸에하롱베이퍼 전북대본점,전북특별자치도,전주시 덕진구,덕진동1가,음식점 > 아시아음식 > 동남아음식,35.84403401,127.1253507
여만국수전문점,전북특별자치도,전주시 덕진구,덕진동1가,음식점 > 한식 > 국수,35.8416745,127.1209715
취향회관,전북특별자치도,전주시 덕진구,덕진동2가,음식점 > 한식,35.84673279,127.1205342
무궁화한정식,전북특별자치도,전주시 덕진구,덕진동2가,음식점 > 한식 > 한정식,35.85006717,127.1171651
고귀,전북특별자치도,전주시 덕진구,송천동1가,"음식점 > 한식 > 육류,고기",35.8535773,127.1192604
맥도날드 전주덕진DT점,전북특별자치도,전주시 덕진구,덕진동1가,음식점 > 패스트푸드 > 맥도날드,35.84384617,127.1231023
우노스베이커리,전북특별자치도,전주시 덕진구,덕진동1가,"음식점 > 간식 > 제과,베이커리",35.8460617,127.1246156
광장포차타운,전북특별자치도,전주시 덕진구,덕진동1가,음식점 > 술집 > 실내포장마차,35.84460899,127.1245071
오늘김해뒷고기 전북대점,전북특별자치도,전주시 덕진구,금암동,"음식점 > 한식 > 육류,고기",35.84339052,127.1279056
치쿠린 전북대본점,전북특별자치도,전주시 덕진구,덕진동1가,음식점 > 일식 > 일본식라면,35.84233161,127.1270007
도미노피자 전주송천점,전북특별자치도,전주시 덕진구,송천동1가,음식점 > 양식 > 피자 > 도미노피자,35.85217769,127.120124
옛날옴팡집,전북특별자치도,전주시 덕진구,덕진동1가,음식점 > 한식,35.85044622,127.1220719
길손네,전북특별자치도,전주시 덕진구,덕진동1가,"음식점 > 술집 > 호프,요리주점",35.84420626,127.1269638
참맛분식 본점,전북특별자치도,전주시 덕진구,덕진동1가,음식점 > 분식,35.84409585,127.1265408
짬뽕명가,전북특별자치도,전주시 덕진구,덕진동2가,음식점 > 중식 > 중국요리,35.8467396,127.1209371
광장포차시골집,전북특별자치도,전주시 덕진구,덕진동1가,음식점 > 술집 > 실내포장마차,35.84507842,127.1254852
청양농장,전북특별자치도,전주시 덕진구,덕진동1가,"음식점 > 한식 > 육류,고기",35.8438415,127.1258674
오일내 전북대점,전북특별자치도,전주시 덕진구,덕진동1가,"음식점 > 한식 > 육류,고기 > 삼겹살",35.84276208,127.1281536
신덕일관,전북특별자치도,전주시 덕진구,덕진동1가,음식점 > 중식 > 중국요리,35.84420832,127.1267147
고수닭갈비 전북대점,전북특별자치도,전주시 덕진구,덕진동1가,"음식점 > 한식 > 육류,고기 > 닭요리",35.84274496,127.1281569
면식당 전북대점,전북특별자치도,전주시 덕진구,덕진동1가,음식점 > 일식 > 일식집,35.84388488,127.1266146
후토루 전북대점,전북특별자치도,전주시 덕진구,덕진동1가,음식점 > 분식,35.84487792,127.1258934
전주현대옥 덕진광장점,전북특별자치도,전주시 덕진구,덕진동1가,음식점 > 한식 > 국밥 > 전주현대옥,35.84451125,127.1240265
치히로 전북대점,전북특별자치도,전주시 덕진구,금암동,음식점 > 일식 > 일식집,35.84321448,127.1281831
두끼떡볶이 전북대점,전북특별자치도,전주시 덕진구,덕진동1가,음식점 > 분식 > 떡볶이 > 두끼떡볶이,35.84329412,127.1270243
파파존스 전주점,전북특별자치도,전주시 덕진구,금암동,음식점 > 양식 > 피자 > 파파존스,35.84351385,127.1280419
아람,전북특별자치도,전주시 덕진구,금암동,음식점 > 술집 > 칵테일바,35.84335539,127.1278956
브디런,전북특별자치도,전주시 덕진구,금암동,음식점 > 양식,35.84344506,127.1274673
광장수산,전북특별자치도,전주시 덕진구,덕진동1가,"음식점 > 한식 > 해물,생선 > 회",35.84453645,127.1240575
본죽&비빔밥cafe 전북대점,전북특별자치도,전주시 덕진구,덕진동1가,음식점 > 퓨전요리 > 퓨전한식 > 본죽&비빔밥cafe,35.84505825,127.1258139
김종구식맛치킨 송천센트럴점,전북특별자치도,전주시 덕진구,송천동1가,음식점 > 치킨,35.85513193,127.1192948
화산춘,전북특별자치도,전주시 덕진구,송천동2가,"음식점 > 한식 > 육류,고기 > 갈비",35.86387301,127.1221678
쿠우쿠우 전주송천점,전북특별자치도,전주시 덕진구,송천동2가,음식점 > 뷔페 > 해산물뷔페 > 쿠우쿠우,35.86666529,127.1305538
부부파스타,전북특별자치도,전주시 덕진구,송천동1가,음식점 > 양식,35.86304218,127.1306121
라라코스트 전주송천점,전북특별자치도,전주시 덕진구,송천동1가,음식점 > 패밀리레스토랑,35.86411594,127.1277573
청해붉은대게무한리필,전북특별자치도,전주시 덕진구,송천동2가,"음식점 > 한식 > 해물,생선 > 게,대게",35.86589343,127.127552
동해회집,전북특별자치도,전주시 덕진구,송천동2가,"음식점 > 한식 > 해물,생선 > 회",35.86465897,127.1220981
본참치 송천에코점,전북특별자치도,전주시 덕진구,송천동1가,음식점 > 일식 > 참치회,35.85993153,127.1268073
착한낙지 덕진구직영점,전북특별자치도,전주시 덕진구,송천동2가,"음식점 > 한식 > 해물,생선",35.86421288,127.1211829
맘스브레드 송천점,전북특별자치도,전주시 덕진구,송천동2가,"음식점 > 간식 > 제과,베이커리",35.86553112,127.1292477
라보테 송천점,전북특별자치도,전주시 덕진구,송천동1가,음식점 > 양식,35.8653934,127.1213054
쭈꾸미신화 송천점,전북특별자치도,전주시 덕진구,송천동2가,"음식점 > 한식 > 해물,생선",35.86483741,127.12732
맛본가,전북특별자치도,전주시 덕진구,송천동1가,"음식점 > 한식 > 육류,고기 > 오리",35.85964,127.1263551
밥상위의한우 송천점,전북특별자치도,전주시 덕진구,송천동2가,"음식점 > 한식 > 육류,고기",35.86666529,127.1305538
풍년제과 송천점,전북특별자치도,전주시 덕진구,송천동1가,"음식점 > 간식 > 제과,베이커리",35.86287658,127.1270423
평화한우 송천점,전북특별자치도,전주시 덕진구,송천동2가,"음식점 > 한식 > 육류,고기",35.86578586,127.1270071
KFC 전주송천점,전북특별자치도,전주시 덕진구,송천동2가,음식점 > 패스트푸드 > KFC,35.86415427,127.1221029
동대문엽기떡볶이 전주송천점,전북특별자치도,전주시 덕진구,송천동1가,음식점 > 분식 > 떡볶이 > 동대문엽기떡볶이,35.86353211,127.1267411
램가든,전북특별자치도,전주시 덕진구,송천동2가,"음식점 > 한식 > 육류,고기",35.86638267,127.128536
석산참숯가마삼겹살 송천점,전북특별자치도,전주시 덕진구,송천동2가,"음식점 > 한식 > 육류,고기 > 삼겹살",35.8661923,127.1235753
후켄치킨 송천점,전북특별자치도,전주시 덕진구,송천동2가,음식점 > 치킨,35.86660618,127.1310387
꿀순이앤꿀돌이 송천점,전북특별자치도,전주시 덕진구,송천동1가,"음식점 > 한식 > 육류,고기",35.86039699,127.1264095
맥도날드 전주송천DT점,전북특별자치도,전주시 덕진구,송천동2가,음식점 > 패스트푸드 > 맥도날드,35.86502321,127.1219714
다미,전북특별자치도,전주시 덕진구,송천동1가,"음식점 > 한식 > 찌개,전골",35.86100584,127.1259332
김가네보쌈족발,전북특별자치도,전주시 덕진구,송천동2가,"음식점 > 한식 > 육류,고기 > 족발,보쌈",35.86570296,127.1235347
60계 전주송천점,전북특별자치도,전주시 덕진구,송천동1가,음식점 > 치킨 > 60계,35.86342319,127.1308175
일품대패 송천점,전북특별자치도,전주시 덕진구,송천동1가,"음식점 > 한식 > 육류,고기 > 삼겹살 > 일품대패",35.86358076,127.1267577
천마민물숯불장어 천마본점,전북특별자치도,전주시 덕진구,송천동2가,"음식점 > 한식 > 해물,생선 > 장어",35.86525576,127.1296934
완미족발 전주송천점,전북특별자치도,전주시 덕진구,송천동1가,"음식점 > 한식 > 육류,고기 > 족발,보쌈 > 완미족발",35.86171739,127.1263551
콩나루콩나물국밥 송천점,전북특별자치도,전주시 덕진구,송천동1가,음식점 > 한식 > 국밥,35.8608786,127.1226061
생생면옥,전북특별자치도,전주시 덕진구,송천동1가,음식점 > 한식 > 국수 > 칼국수,35.86248843,127.1259079
양평해장국 송천점,전북특별자치도,전주시 덕진구,송천동2가,음식점 > 한식 > 해장국,35.86647346,127.1328953
정담떡방,전북특별자치도,전주시 덕진구,송천동1가,"음식점 > 간식 > 떡,한과",35.86115356,127.1234081
새우락 본점,전북특별자치도,전주시 덕진구,송천동1가,음식점 > 분식 > 떡볶이,35.86169488,127.1263274
노랑고래 송천점,전북특별자치도,전주시 덕진구,송천동1가,"음식점 > 간식 > 제과,베이커리",35.86334854,127.1273198
일등한우정육식당,전북특별자치도,전주시 덕진구,송천동2가,"음식점 > 한식 > 육류,고기",35.86595941,127.1265202
꽈배기진 송천점,전북특별자치도,전주시 덕진구,송천동1가,음식점 > 간식,35.8595675,127.1267336
한솥도시락 전주송천점,전북특별자치도,전주시 덕진구,송천동1가,음식점 > 도시락 > 한솥도시락,35.86276522,127.1266657
손가네바지락손칼국수 전주점,전북특별자치도,전주시 덕진구,송천동1가,음식점 > 한식 > 국수 > 칼국수,35.86099981,127.1221722
BHC치킨 전주송천2호점,전북특별자치도,전주시 덕진구,송천동1가,음식점 > 치킨 > BHC치킨,35.86383141,127.1308603
갈비야 전주4호점,전북특별자치도,전주시 덕진구,송천동1가,"음식점 > 한식 > 육류,고기 > 갈비",35.86311807,127.1296102
도싯골묵은지삼겹살 송천동직영점,전북특별자치도,전주시 덕진구,송천동2가,"음식점 > 한식 > 육류,고기 > 삼겹살",35.86618603,127.1226541
피자헛 전주송천점,전북특별자치도,전주시 덕진구,송천동1가,음식점 > 양식 > 피자 > 피자헛,35.86409801,127.1276742
청년다방 전주송천점,전북특별자치도,전주시 덕진구,송천동2가,음식점 > 분식 > 떡볶이 > 청년다방,35.86454869,127.1276207
무한사랑김치찌개 본점,전북특별자치도,전주시 덕진구,송천동2가,"음식점 > 한식 > 찌개,전골",35.86668436,127.1336973
중화정 송천점,전북특별자치도,전주시 덕진구,송천동2가,음식점 > 중식 > 양꼬치,35.86618693,127.1226541
쿠우쿠우 전주송천점,전북특별자치도,전주시 덕진구,송천동2가,음식점 > 뷔페 > 해산물뷔페 > 쿠우쿠우,35.86666529,127.1305538
부부파스타,전북특별자치도,전주시 덕진구,송천동1가,음식점 > 양식,35.86304218,127.1306121
라라코스트 전주송천점,전북특별자치도,전주시 덕진구,송천동1가,음식점 > 패밀리레스토랑,35.86411594,127.1277573
맘스브레드 송천점,전북특별자치도,전주시 덕진구,송천동2가,"음식점 > 간식 > 제과,베이커리",35.86553112,127.1292477
청해붉은대게무한리필,전북특별자치도,전주시 덕진구,송천동2가,"음식점 > 한식 > 해물,생선 > 게,대게",35.86589343,127.127552
밥상위의한우 송천점,전북특별자치도,전주시 덕진구,송천동2가,"음식점 > 한식 > 육류,고기",35.86666529,127.1305538
후켄치킨 송천점,전북특별자치도,전주시 덕진구,송천동2가,음식점 > 치킨,35.86660618,127.1310387
본참치 송천에코점,전북특별자치도,전주시 덕진구,송천동1가,음식점 > 일식 > 참치회,35.85993153,127.1268073
소리마당,전북특별자치도,전주시 덕진구,덕진동1가,음식점 > 한식,35.85485985,127.1361606
양평해장국 송천점,전북특별자치도,전주시 덕진구,송천동2가,음식점 > 한식 > 해장국,35.86647346,127.1328953
무한사랑김치찌개 본점,전북특별자치도,전주시 덕진구,송천동2가,"음식점 > 한식 > 찌개,전골",35.86668436,127.1336973
쭈꾸미신화 송천점,전북특별자치도,전주시 덕진구,송천동2가,"음식점 > 한식 > 해물,생선",35.86483741,127.12732
60계 전주송천점,전북특별자치도,전주시 덕진구,송천동1가,음식점 > 치킨 > 60계,35.86342319,127.1308175
모현동참숯집 전주송천점,전북특별자치도,전주시 덕진구,송천동1가,"음식점 > 한식 > 육류,고기",35.8648042,127.1346364
램가든,전북특별자치도,전주시 덕진구,송천동2가,"음식점 > 한식 > 육류,고기",35.86638267,127.128536
풍년제과 송천점,전북특별자치도,전주시 덕진구,송천동1가,"음식점 > 간식 > 제과,베이커리",35.86287658,127.1270423
맛본가,전북특별자치도,전주시 덕진구,송천동1가,"음식점 > 한식 > 육류,고기 > 오리",35.85964,127.1263551
천마민물숯불장어 천마본점,전북특별자치도,전주시 덕진구,송천동2가,"음식점 > 한식 > 해물,생선 > 장어",35.86525576,127.1296934
평화한우 송천점,전북특별자치도,전주시 덕진구,송천동2가,"음식점 > 한식 > 육류,고기",35.86578586,127.1270071
동대문엽기떡볶이 전주송천점,전북특별자치도,전주시 덕진구,송천동1가,음식점 > 분식 > 떡볶이 > 동대문엽기떡볶이,35.86353211,127.1267411
BHC치킨 전주송천2호점,전북특별자치도,전주시 덕진구,송천동1가,음식점 > 치킨 > BHC치킨,35.86383141,127.1308603
꿀순이앤꿀돌이 송천점,전북특별자치도,전주시 덕진구,송천동1가,"음식점 > 한식 > 육류,고기",35.86039699,127.1264095
만강식당,전북특별자치도,전주시 덕진구,덕진동1가,음식점 > 양식,35.8547724,127.1393289
참고깃집,전북특별자치도,전주시 덕진구,송천동2가,"음식점 > 한식 > 육류,고기",35.86645128,127.133388
푸드카페김밥천국 오송점,전북특별자치도,전주시 덕진구,송천동1가,음식점 > 분식,35.86379542,127.1308027
아구세상,전북특별자치도,전주시 덕진구,송천동2가,음식점 > 한식,35.86667251,127.1305405
갈비야 전주4호점,전북특별자치도,전주시 덕진구,송천동1가,"음식점 > 한식 > 육류,고기 > 갈비",35.86311807,127.1296102
다미,전북특별자치도,전주시 덕진구,송천동1가,"음식점 > 한식 > 찌개,전골",35.86100584,127.1259332
수수전집,전북특별자치도,전주시 덕진구,송천동2가,음식점 > 한식,35.86663463,127.13384
일품대패 송천점,전북특별자치도,전주시 덕진구,송천동1가,"음식점 > 한식 > 육류,고기 > 삼겹살 > 일품대패",35.86358076,127.1267577
노랑고래 송천점,전북특별자치도,전주시 덕진구,송천동1가,"음식점 > 간식 > 제과,베이커리",35.86334854,127.1273198
피자헛 전주송천점,전북특별자치도,전주시 덕진구,송천동1가,음식점 > 양식 > 피자 > 피자헛,35.86409801,127.1276742
샤브향 전주송천점,전북특별자치도,전주시 덕진구,송천동2가,음식점 > 아시아음식 > 동남아음식 > 샤브향,35.86511474,127.1284099
완미족발 전주송천점,전북특별자치도,전주시 덕진구,송천동1가,"음식점 > 한식 > 육류,고기 > 족발,보쌈 > 완미족발",35.86171739,127.1263551
정가네꼬마김밥 송천점,전북특별자치도,전주시 덕진구,송천동1가,음식점 > 분식,35.86391003,127.1306689
청년다방 전주송천점,전북특별자치도,전주시 덕진구,송천동2가,음식점 > 분식 > 떡볶이 > 청년다방,35.86454869,127.1276207
미당떡두껍집1994 송천점,전북특별자치도,전주시 덕진구,송천동2가,음식점 > 분식,35.86471777,127.1279542
아마레,전북특별자치도,전주시 덕진구,송천동2가,음식점 > 양식,35.8666715,127.131464
공술닭강정 전주송천점,전북특별자치도,전주시 덕진구,송천동2가,음식점 > 간식 > 닭강정,35.86513231,127.1279006
한솥도시락 전주송천점,전북특별자치도,전주시 덕진구,송천동1가,음식점 > 도시락 > 한솥도시락,35.86276522,127.1266657
새우락 본점,전북특별자치도,전주시 덕진구,송천동1가,음식점 > 분식 > 떡볶이,35.86169488,127.1263274
꽈배기진 송천점,전북특별자치도,전주시 덕진구,송천동1가,음식점 > 간식,35.8595675,127.1267336
생생면옥,전북특별자치도,전주시 덕진구,송천동1가,음식점 > 한식 > 국수 > 칼국수,35.86248843,127.1259079
교촌치킨 송천점,전북특별자치도,전주시 덕진구,송천동2가,음식점 > 치킨 > 교촌치킨,35.86666528,127.130556
찬미김밥,전북특별자치도,전주시 덕진구,송천동1가,음식점 > 분식,35.86496196,127.1305156
쿠우쿠우 전주송천점,전북특별자치도,전주시 덕진구,송천동2가,음식점 > 뷔페 > 해산물뷔페 > 쿠우쿠우,35.86666529,127.1305538
두루미밥상 전주점,전북특별자치도,전주시 덕진구,호성동2가,음식점 > 한식,35.86875897,127.1461408
육일식당 송천직영점,전북특별자치도,전주시 덕진구,송천동2가,음식점 > 한식 > 감자탕,35.8694329,127.1418071
진가진설렁탕,전북특별자치도,전주시 덕진구,송천동2가,음식점 > 한식 > 설렁탕,35.86975988,127.1357077
부부파스타,전북특별자치도,전주시 덕진구,송천동1가,음식점 > 양식,35.86304218,127.1306121
리스토란테 콜리 송천점,전북특별자치도,전주시 덕진구,송천동2가,음식점 > 양식 > 이탈리안,35.87051514,127.1372924
복사꽃피는집 전주점,전북특별자치도,전주시 덕진구,송천동2가,음식점 > 한식,35.86974563,127.1402708
아구세상 송천점,전북특별자치도,전주시 덕진구,송천동2가,"음식점 > 한식 > 해물,생선 > 아구",35.8694464,127.1418149
무한사랑김치찌개 본점,전북특별자치도,전주시 덕진구,송천동2가,"음식점 > 한식 > 찌개,전골",35.86668436,127.1336973
버거킹 전주송천DT점,전북특별자치도,전주시 덕진구,송천동2가,음식점 > 패스트푸드 > 버거킹,35.86978302,127.1343657
황금코다리 송천점,전북특별자치도,전주시 덕진구,송천동2가,"음식점 > 한식 > 해물,생선",35.86937861,127.1419886
피노,전북특별자치도,전주시 덕진구,송천동2가,음식점 > 양식 > 이탈리안,35.87143538,127.1388044
샤브50,전북특별자치도,전주시 덕진구,호성동1가,음식점 > 한식,35.86623624,127.1498997
양평해장국 송천점,전북특별자치도,전주시 덕진구,송천동2가,음식점 > 한식 > 해장국,35.86647346,127.1328953
후켄치킨 송천점,전북특별자치도,전주시 덕진구,송천동2가,음식점 > 치킨,35.86660618,127.1310387
밥상위의한우 송천점,전북특별자치도,전주시 덕진구,송천동2가,"음식점 > 한식 > 육류,고기",35.86666529,127.1305538
써브웨이 전주송천DT점,전북특별자치도,전주시 덕진구,송천동2가,음식점 > 패스트푸드 > 샌드위치 > 써브웨이,35.86968692,127.1372589
모현동참숯집 전주송천점,전북특별자치도,전주시 덕진구,송천동1가,"음식점 > 한식 > 육류,고기",35.8648042,127.1346364
돈까스클럽 전주호성점,전북특별자치도,전주시 덕진구,호성동1가,"음식점 > 일식 > 돈까스,우동 > 돈까스클럽",35.86648291,127.1479392
도현한식당 송천점,전북특별자치도,전주시 덕진구,송천동2가,음식점 > 한식,35.86981068,127.1338066
맘스브레드 송천점,전북특별자치도,전주시 덕진구,송천동2가,"음식점 > 간식 > 제과,베이커리",35.86553112,127.1292477
가향,전북특별자치도,전주시 덕진구,송천동2가,음식점 > 중식 > 중국요리,35.87247876,127.1382592
전주현대옥 전주호성점,전북특별자치도,전주시 덕진구,호성동1가,음식점 > 한식 > 국밥 > 전주현대옥,35.86476611,127.1485959
참고깃집,전북특별자치도,전주시 덕진구,송천동2가,"음식점 > 한식 > 육류,고기",35.86645128,127.133388
핸더 에코시티점,전북특별자치도,전주시 덕진구,송천동2가,음식점 > 양식 > 이탈리안,35.87278788,127.139047
수수전집,전북특별자치도,전주시 덕진구,송천동2가,음식점 > 한식,35.86663463,127.13384
유씨네본가누룽지삼계탕 송천점,전북특별자치도,전주시 덕진구,송천동2가,"음식점 > 한식 > 육류,고기 > 닭요리 > 삼계탕",35.8696945,127.1408354
건지산도토리,전북특별자치도,전주시 덕진구,송천동2가,음식점 > 한식,35.8689941,127.1322274
채선당한가득 전주송천점,전북특별자치도,전주시 덕진구,송천동2가,음식점 > 샤브샤브 > 채선당,35.86943289,127.1418071
아구세상,전북특별자치도,전주시 덕진구,송천동2가,음식점 > 한식,35.86667251,127.1305405
60계 전주송천점,전북특별자치도,전주시 덕진구,송천동1가,음식점 > 치킨 > 60계,35.86342319,127.1308175
아마레,전북특별자치도,전주시 덕진구,송천동2가,음식점 > 양식,35.8666715,127.131464
천마민물숯불장어 천마본점,전북특별자치도,전주시 덕진구,송천동2가,"음식점 > 한식 > 해물,생선 > 장어",35.86525576,127.1296934
부송국수 천마지구점,전북특별자치도,전주시 덕진구,송천동2가,음식점 > 한식 > 국수,35.86649702,127.1327746
아티장보노보,전북특별자치도,전주시 덕진구,호성동1가,"음식점 > 간식 > 제과,베이커리",35.86341841,127.1481306
마이돈농부웃소,전북특별자치도,전주시 덕진구,호성동2가,"음식점 > 한식 > 육류,고기",35.86878877,127.1460966
거호각,전북특별자치도,전주시 덕진구,송천동2가,음식점 > 중식 > 중국요리,35.86656974,127.1338421
양반갈비 송천에코점,전북특별자치도,전주시 덕진구,송천동2가,"음식점 > 한식 > 육류,고기 > 갈비",35.8696945,127.1408354
삼시세끼,전북특별자치도,전주시 덕진구,송천동1가,음식점 > 도시락,35.86645485,127.13503
BHC치킨 전주송천2호점,전북특별자치도,전주시 덕진구,송천동1가,음식점 > 치킨 > BHC치킨,35.86383141,127.1308603
진양명가,전북특별자치도,전주시 덕진구,송천동2가,"음식점 > 한식 > 육류,고기 > 갈비",35.8665736,127.1336129
파리바게뜨 전주더블진흥점,전북특별자치도,전주시 덕진구,호성동1가,"음식점 > 간식 > 제과,베이커리 > 파리바게뜨",35.86443218,127.1489773
교촌치킨 송천점,전북특별자치도,전주시 덕진구,송천동2가,음식점 > 치킨 > 교촌치킨,35.86666528,127.130556
팬더중화요리,전북특별자치도,전주시 덕진구,호성동1가,음식점 > 중식 > 중국요리,35.86671395,127.1476828
모현동참숯집 송천에코시티점,전북특별자치도,전주시 덕진구,송천동1가,"음식점 > 한식 > 육류,고기",35.86478803,127.1345843
두루미밥상 전주점,전북특별자치도,전주시 덕진구,호성동2가,음식점 > 한식,35.86875897,127.1461408
육일식당 송천직영점,전북특별자치도,전주시 덕진구,송천동2가,음식점 > 한식 > 감자탕,35.8694329,127.1418071
수원성갈비,전북특별자치도,전주시 덕진구,호성동2가,"음식점 > 한식 > 육류,고기 > 갈비",35.87509345,127.1434993
샤브50,전북특별자치도,전주시 덕진구,호성동1가,음식점 > 한식,35.86623624,127.1498997
탐라수산,전북특별자치도,전주시 덕진구,송천동2가,"음식점 > 한식 > 해물,생선",35.87413502,127.1384647
아구세상 송천점,전북특별자치도,전주시 덕진구,송천동2가,"음식점 > 한식 > 해물,생선 > 아구",35.8694464,127.1418149
황금코다리 송천점,전북특별자치도,전주시 덕진구,송천동2가,"음식점 > 한식 > 해물,생선",35.86937861,127.1419886
복사꽃피는집 전주점,전북특별자치도,전주시 덕진구,송천동2가,음식점 > 한식,35.86974563,127.1402708
피노,전북특별자치도,전주시 덕진구,송천동2가,음식점 > 양식 > 이탈리안,35.87143538,127.1388044
돈까스클럽 전주호성점,전북특별자치도,전주시 덕진구,호성동1가,"음식점 > 일식 > 돈까스,우동 > 돈까스클럽",35.86648291,127.1479392
진가진설렁탕,전북특별자치도,전주시 덕진구,송천동2가,음식점 > 한식 > 설렁탕,35.86975988,127.1357077
가향,전북특별자치도,전주시 덕진구,송천동2가,음식점 > 중식 > 중국요리,35.87247876,127.1382592
하수오삼계탕,전북특별자치도,전주시 덕진구,호성동2가,"음식점 > 한식 > 육류,고기 > 오리",35.8711451,127.1493896
리스토란테 콜리 송천점,전북특별자치도,전주시 덕진구,송천동2가,음식점 > 양식 > 이탈리안,35.87051514,127.1372924
핸더 에코시티점,전북특별자치도,전주시 덕진구,송천동2가,음식점 > 양식 > 이탈리안,35.87278788,127.139047
전주메밀방앗간 송천에코시티점,전북특별자치도,전주시 덕진구,호성동2가,음식점 > 한식,35.87431652,127.1501784
전주현대옥 전주호성점,전북특별자치도,전주시 덕진구,호성동1가,음식점 > 한식 > 국밥 > 전주현대옥,35.86476611,127.1485959
마이돈농부웃소,전북특별자치도,전주시 덕진구,호성동2가,"음식점 > 한식 > 육류,고기",35.86878877,127.1460966
유씨네본가누룽지삼계탕 송천점,전북특별자치도,전주시 덕진구,송천동2가,"음식점 > 한식 > 육류,고기 > 닭요리 > 삼계탕",35.8696945,127.1408354
채선당한가득 전주송천점,전북특별자치도,전주시 덕진구,송천동2가,음식점 > 샤브샤브 > 채선당,35.86943289,127.1418071
써브웨이 전주송천DT점,전북특별자치도,전주시 덕진구,송천동2가,음식점 > 패스트푸드 > 샌드위치 > 써브웨이,35.86968692,127.1372589
버거킹 전주송천DT점,전북특별자치도,전주시 덕진구,송천동2가,음식점 > 패스트푸드 > 버거킹,35.86978302,127.1343657
팬더중화요리,전북특별자치도,전주시 덕진구,호성동1가,음식점 > 중식 > 중국요리,35.86671395,127.1476828
너는김밥나는반찬,전북특별자치도,전주시 덕진구,송천동2가,음식점 > 분식,35.874054,127.1399451
양반갈비 송천에코점,전북특별자치도,전주시 덕진구,송천동2가,"음식점 > 한식 > 육류,고기 > 갈비",35.8696945,127.1408354
바다양푼이동태탕 전주에코시티점,전북특별자치도,전주시 덕진구,호성동2가,"음식점 > 한식 > 해물,생선 > 바다양푼이동태탕",35.87367956,127.1410695
파리바게뜨 전주더블진흥점,전북특별자치도,전주시 덕진구,호성동1가,"음식점 > 간식 > 제과,베이커리 > 파리바게뜨",35.86443218,127.1489773
천안당호두과자 전주에코점,전북특별자치도,전주시 덕진구,송천동2가,"음식점 > 간식 > 제과,베이커리",35.86941939,127.1417971
아티장보노보,전북특별자치도,전주시 덕진구,호성동1가,"음식점 > 간식 > 제과,베이커리",35.86341841,127.1481306
전주당 전주송천에코시티점,전북특별자치도,전주시 덕진구,송천동2가,"음식점 > 간식 > 떡,한과",35.87529696,127.1390481
일미리금계찜닭 송천에코시티점,전북특별자치도,전주시 덕진구,송천동2가,"음식점 > 한식 > 육류,고기 > 닭요리 > 일미리금계찜닭",35.87209006,127.1384833
불스피자 에코본점,전북특별자치도,전주시 덕진구,송천동2가,음식점 > 양식 > 피자,35.87071042,127.1367502
호키토키 송천에코시티점,전북특별자치도,전주시 덕진구,송천동2가,음식점 > 분식,35.87205575,127.1385375
59쌀피자 전주호성점,전북특별자치도,전주시 덕진구,호성동1가,음식점 > 양식 > 피자 > 59쌀피자,35.86338522,127.1480066
해송수산 에코시티점,전북특별자치도,전주시 덕진구,송천동2가,"음식점 > 한식 > 해물,생선 > 회",35.87416388,127.1384504
천마산가든 전주점,전북특별자치도,전주시 덕진구,호성동2가,음식점 > 한식,35.87111734,127.1492456
자연정가양평해장국 에코시티점,전북특별자치도,전주시 덕진구,호성동2가,음식점 > 한식 > 해장국,35.87586575,127.1397401
길손가든 전주송천호성점,전북특별자치도,전주시 덕진구,호성동2가,음식점 > 한식,35.86996387,127.1462051
김가네 전주에코시티점,전북특별자치도,전주시 덕진구,송천동2가,음식점 > 분식 > 김가네,35.87583155,127.1365652
뺑빌로,전북특별자치도,전주시 덕진구,송천동2가,"음식점 > 간식 > 제과,베이커리",35.87562438,127.1364574
후문1호반점 전주에코점,전북특별자치도,전주시 덕진구,호성동2가,음식점 > 중식 > 중국요리,35.87530596,127.1406117
투모아 호성점,전북특별자치도,전주시 덕진구,호성동2가,"음식점 > 술집 > 호프,요리주점",35.86561732,127.1445529
삼시세끼,전북특별자치도,전주시 덕진구,송천동1가,음식점 > 도시락,35.86645485,127.13503
경아네밥상,전북특별자치도,전주시 덕진구,송천동2가,음식점 > 한식,35.87215843,127.1385875
신진통닭 전주송천점,전북특별자치도,전주시 덕진구,송천동2가,음식점 > 치킨,35.8759161,127.136716
만수식당 본점,전북특별자치도,전주시 덕진구,호성동1가,음식점 > 한식,35.87300043,127.1567346
두루미밥상 전주점,전북특별자치도,전주시 덕진구,호성동2가,음식점 > 한식,35.86875897,127.1461408
수원성갈비,전북특별자치도,전주시 덕진구,호성동2가,"음식점 > 한식 > 육류,고기 > 갈비",35.87509345,127.1434993
전주메밀방앗간 송천에코시티점,전북특별자치도,전주시 덕진구,호성동2가,음식점 > 한식,35.87431652,127.1501784
조선기와,전북특별자치도,전주시 덕진구,호성동1가,"음식점 > 한식 > 육류,고기",35.87164415,127.1573476
하수오삼계탕,전북특별자치도,전주시 덕진구,호성동2가,"음식점 > 한식 > 육류,고기 > 오리",35.8711451,127.1493896
황포냉면,전북특별자치도,전주시 덕진구,호성동1가,음식점 > 한식 > 냉면,35.87258536,127.1564249
육일식당 송천직영점,전북특별자치도,전주시 덕진구,송천동2가,음식점 > 한식 > 감자탕,35.8694329,127.1418071
샤브50,전북특별자치도,전주시 덕진구,호성동1가,음식점 > 한식,35.86623624,127.1498997
정통중화요리백두산,전북특별자치도,전주시 덕진구,호성동1가,음식점 > 중식 > 중국요리,35.87104557,127.1588247
돈까스클럽 전주호성점,전북특별자치도,전주시 덕진구,호성동1가,"음식점 > 일식 > 돈까스,우동 > 돈까스클럽",35.86648291,127.1479392
아구세상 송천점,전북특별자치도,전주시 덕진구,송천동2가,"음식점 > 한식 > 해물,생선 > 아구",35.8694464,127.1418149
황금코다리 송천점,전북특별자치도,전주시 덕진구,송천동2가,"음식점 > 한식 > 해물,생선",35.86937861,127.1419886
선화당,전북특별자치도,전주시 덕진구,호성동1가,"음식점 > 간식 > 제과,베이커리",35.87267046,127.1575069
마이돈농부웃소,전북특별자치도,전주시 덕진구,호성동2가,"음식점 > 한식 > 육류,고기",35.86878877,127.1460966
너는김밥나는반찬,전북특별자치도,전주시 덕진구,송천동2가,음식점 > 분식,35.874054,127.1399451
바다양푼이동태탕 전주에코시티점,전북특별자치도,전주시 덕진구,호성동2가,"음식점 > 한식 > 해물,생선 > 바다양푼이동태탕",35.87367956,127.1410695
채선당한가득 전주송천점,전북특별자치도,전주시 덕진구,송천동2가,음식점 > 샤브샤브 > 채선당,35.86943289,127.1418071
천마산가든 전주점,전북특별자치도,전주시 덕진구,호성동2가,음식점 > 한식,35.87111734,127.1492456
팬더중화요리,전북특별자치도,전주시 덕진구,호성동1가,음식점 > 중식 > 중국요리,35.86671395,127.1476828
전주당 전주송천에코시티점,전북특별자치도,전주시 덕진구,송천동2가,"음식점 > 간식 > 떡,한과",35.87529696,127.1390481
자연정가양평해장국 에코시티점,전북특별자치도,전주시 덕진구,호성동2가,음식점 > 한식 > 해장국,35.87586575,127.1397401
천안당호두과자 전주에코점,전북특별자치도,전주시 덕진구,송천동2가,"음식점 > 간식 > 제과,베이커리",35.86941939,127.1417971
후문1호반점 전주에코점,전북특별자치도,전주시 덕진구,호성동2가,음식점 > 중식 > 중국요리,35.87530596,127.1406117
전주식육식당,전북특별자치도,전주시 덕진구,호성동2가,음식점,35.87151597,127.1482907
길손가든 전주송천호성점,전북특별자치도,전주시 덕진구,호성동2가,음식점 > 한식,35.86996387,127.1462051
만수식당 본점,전북특별자치도,전주시 덕진구,호성동1가,음식점 > 한식,35.87300043,127.1567346
조선기와,전북특별자치도,전주시 덕진구,호성동1가,"음식점 > 한식 > 육류,고기",35.87164415,127.1573476
전주메밀방앗간 송천에코시티점,전북특별자치도,전주시 덕진구,호성동2가,음식점 > 한식,35.87431652,127.1501784
황포냉면,전북특별자치도,전주시 덕진구,호성동1가,음식점 > 한식 > 냉면,35.87258536,127.1564249
선화당,전북특별자치도,전주시 덕진구,호성동1가,"음식점 > 간식 > 제과,베이커리",35.87267046,127.1575069
자매갈비전골,전북특별자치도,전주시 완산구,남노송동,"음식점 > 한식 > 찌개,전골",35.81984499,127.153452
전주왱이콩나물국밥전문점,전북특별자치도,전주시 완산구,경원동2가,음식점 > 한식 > 국밥,35.81828668,127.1491787
기와,전북특별자치도,전주시 완산구,남노송동,음식점 > 한식 > 한정식,35.81778234,127.1538995
전일갑오,전북특별자치도,전주시 완산구,경원동3가,"음식점 > 술집 > 호프,요리주점",35.8202099,127.1499647
남노갈비 본점,전북특별자치도,전주시 완산구,풍남동2가,"음식점 > 한식 > 육류,고기 > 갈비",35.81917212,127.1531663
고궁수라간,전북특별자치도,전주시 완산구,풍남동3가,음식점 > 한식,35.81722202,127.152274
베테랑,전북특별자치도,전주시 완산구,교동,음식점 > 한식 > 국수,35.81345582,127.1514303
한국집,전북특별자치도,전주시 완산구,전동,음식점 > 한식,35.81651689,127.1482271
PNB풍년제과 전주본점,전북특별자치도,전주시 완산구,경원동1가,"음식점 > 간식 > 제과,베이커리",35.81842883,127.1471905
백송회관,전북특별자치도,전주시 완산구,서노송동,음식점 > 한식,35.82343022,127.149143
풍년제과 본점,전북특별자치도,전주시 완산구,전동,"음식점 > 간식 > 제과,베이커리",35.8150239,127.1479024
가족회관,전북특별자치도,전주시 완산구,중앙동3가,음식점 > 한식,35.81708745,127.1459664
길거리야 한옥마을점,전북특별자치도,전주시 완산구,교동,"음식점 > 간식 > 제과,베이커리",35.81395647,127.1510738
다문,전북특별자치도,전주시 완산구,교동,음식점 > 한식 > 한정식,35.81346546,127.1523553
연지본관,전북특별자치도,전주시 완산구,경원동3가,음식점 > 한식 > 설렁탕,35.82021987,127.1477294
옛촌막걸리 한옥마을 직영점,전북특별자치도,전주시 완산구,전동,"음식점 > 술집 > 호프,요리주점",35.81524754,127.1485258
꽃담집 본관,전북특별자치도,전주시 완산구,풍남동3가,음식점 > 한식,35.81648409,127.1521132
천년누리봄,전북특별자치도,전주시 완산구,경원동2가,"음식점 > 술집 > 호프,요리주점",35.81780892,127.1499779
전주식당,전북특별자치도,전주시 완산구,남노송동,음식점 > 한식,35.8177823,127.153926
PNB풍년제과 한옥마을 1호점,전북특별자치도,전주시 완산구,교동,"음식점 > 간식 > 제과,베이커리",35.81456808,127.1527735
교동석갈비,전북특별자치도,전주시 완산구,풍남동3가,"음식점 > 한식 > 육류,고기 > 갈비",35.81473867,127.151862
한울밥상,전북특별자치도,전주시 완산구,남노송동,음식점 > 한식,35.81871827,127.1549724
전주전집 전주한옥마을점,전북특별자치도,전주시 완산구,풍남동2가,음식점 > 한식,35.81910789,127.1519301
전망,전북특별자치도,전주시 완산구,풍남동3가,음식점 > 한식,35.8163609,127.1540129
양반가,전북특별자치도,전주시 완산구,풍남동3가,음식점 > 한식 > 한정식,35.81614545,127.1512185
매당,전북특별자치도,전주시 완산구,풍남동1가,음식점 > 한식 > 한정식,35.81839904,127.1515824
교동떡갈비,전북특별자치도,전주시 완산구,풍남동3가,"음식점 > 한식 > 육류,고기 > 갈비",35.81534741,127.1522615
가득,전북특별자치도,전주시 완산구,경원동3가,"음식점 > 일식 > 초밥,롤",35.82176312,127.1474932
전동떡갈비앤브리즈,전북특별자치도,전주시 완산구,전동,음식점 > 한식,35.81599351,127.1487529
해태바베큐,전북특별자치도,전주시 완산구,경원동2가,음식점 > 치킨,35.8183728,127.1487772
하숙영가마솥비빔밥,전북특별자치도,전주시 완산구,중앙동3가,음식점 > 한식,35.8174247,127.1458121
성미당 본점,전북특별자치도,전주시 완산구,중앙동3가,음식점 > 한식,35.81733871,127.1453782
영흥관,전북특별자치도,전주시 완산구,경원동3가,음식점 > 중식 > 중국요리,35.82025147,127.1476852
다우랑 1호점,전북특별자치도,전주시 완산구,교동,음식점 > 분식,35.8142062,127.1510024
장가네왕족발,전북특별자치도,전주시 완산구,풍남동2가,"음식점 > 한식 > 육류,고기 > 족발,보쌈",35.81931623,127.1525258
교동시래청,전북특별자치도,전주시 완산구,풍남동3가,음식점 > 한식,35.81653626,127.1550147
전주현대옥 전주한옥마을점,전북특별자치도,전주시 완산구,교동,음식점 > 한식 > 국밥 > 전주현대옥,35.81310106,127.1525848
풍남정,전북특별자치도,전주시 완산구,전동,음식점 > 한식,35.81396982,127.1490401
경기전중앙숯불,전북특별자치도,전주시 완산구,풍남동3가,"음식점 > 한식 > 육류,고기",35.81607373,127.150913
한옥마을물갈비,전북특별자치도,전주시 완산구,풍남동2가,"음식점 > 한식 > 육류,고기 > 갈비",35.81927143,127.1523188
조선옥 한옥마을점,전북특별자치도,전주시 완산구,풍남동3가,음식점 > 한식,35.81638345,127.1540052
베네디토마노,전북특별자치도,전주시 완산구,남노송동,음식점 > 양식 > 이탈리안,35.81998395,127.1540288
계수나무짬뽕,전북특별자치도,전주시 완산구,경원동1가,음식점 > 중식 > 중국요리,35.817742,127.1487119
종로회관,전북특별자치도,전주시 완산구,전동,음식점 > 한식,35.81481461,127.1487905
PNB풍년제과 한옥마을3호점,전북특별자치도,전주시 완산구,풍남동2가,"음식점 > 간식 > 제과,베이커리",35.81771959,127.152213
자매갈비전골,전북특별자치도,전주시 완산구,남노송동,"음식점 > 한식 > 찌개,전골",35.81984499,127.153452
명성옥 전주본점,전북특별자치도,전주시 덕진구,인후동1가,"음식점 > 한식 > 찌개,전골",35.8283091,127.1627512
예우랑 아중점,전북특별자치도,전주시 완산구,중노송동,음식점 > 한식,35.82456503,127.1609243
백송회관,전북특별자치도,전주시 완산구,서노송동,음식점 > 한식,35.82343022,127.149143
남노갈비 본점,전북특별자치도,전주시 완산구,풍남동2가,"음식점 > 한식 > 육류,고기 > 갈비",35.81917212,127.1531663
기와,전북특별자치도,전주시 완산구,남노송동,음식점 > 한식 > 한정식,35.81778234,127.1538995
아중고기마트,전북특별자치도,전주시 덕진구,인후동1가,"음식점 > 한식 > 육류,고기",35.8279785,127.1639569
도미노피자 전주인후점,전북특별자치도,전주시 덕진구,인후동1가,음식점 > 양식 > 피자 > 도미노피자,35.82515904,127.1615363
현대옥 아중점,전북특별자치도,전주시 덕진구,인후동1가,음식점 > 한식 > 국밥 > 전주현대옥,35.82605616,127.1645881
오목돌바지락손칼국수,전북특별자치도,전주시 덕진구,인후동1가,음식점 > 한식 > 국수 > 칼국수,35.83070886,127.1629686
경성금돼지,전북특별자치도,전주시 덕진구,인후동1가,"음식점 > 한식 > 육류,고기",35.83316138,127.1608155
아리랑하우스,전북특별자치도,전주시 덕진구,인후동1가,"음식점 > 한식 > 육류,고기",35.82360709,127.1654949
항아리손칼국수,전북특별자치도,전주시 덕진구,인후동1가,음식점 > 한식 > 국수 > 칼국수,35.82809256,127.1629257
한울밥상,전북특별자치도,전주시 완산구,남노송동,음식점 > 한식,35.81871827,127.1549724
도도랑족발보쌈 본점,전북특별자치도,전주시 덕진구,인후동1가,"음식점 > 한식 > 육류,고기 > 족발,보쌈",35.82653403,127.163115
오태집,전북특별자치도,전주시 완산구,중노송동,음식점 > 퓨전요리,35.82651801,127.1533807
전주식당,전북특별자치도,전주시 완산구,남노송동,음식점 > 한식,35.8177823,127.153926
3초삽삼겹살,전북특별자치도,전주시 덕진구,인후동1가,"음식점 > 한식 > 육류,고기 > 삼겹살",35.82497574,127.1637891
임금님잔치국수,전북특별자치도,전주시 완산구,중노송동,음식점 > 한식 > 국수,35.82339412,127.1576551
미담,전북특별자치도,전주시 덕진구,인후동1가,"음식점 > 한식 > 육류,고기",35.82485013,127.1633705
가화만사성,전북특별자치도,전주시 덕진구,인후동1가,음식점 > 중식 > 중국요리,35.8248788,127.1635012
전주전집 전주한옥마을점,전북특별자치도,전주시 완산구,풍남동2가,음식점 > 한식,35.81910789,127.1519301
토방생선가,전북특별자치도,전주시 덕진구,인후동1가,"음식점 > 한식 > 해물,생선",35.82607152,127.1612372
전주옥면 평양냉면,전북특별자치도,전주시 덕진구,인후동1가,음식점 > 한식 > 냉면,35.8294043,127.1592607
베네디토마노,전북특별자치도,전주시 완산구,남노송동,음식점 > 양식 > 이탈리안,35.81998395,127.1540288
쭈꾸미신화 아중점,전북특별자치도,전주시 덕진구,인후동1가,"음식점 > 한식 > 해물,생선",35.83322992,127.1621238
시선,전북특별자치도,전주시 완산구,중노송동,"음식점 > 한식 > 육류,고기",35.82334248,127.1578575
흑돈담,전북특별자치도,전주시 덕진구,인후동1가,"음식점 > 한식 > 육류,고기",35.83032108,127.1611373
생선이야기,전북특별자치도,전주시 덕진구,인후동1가,"음식점 > 한식 > 해물,생선",35.83313662,127.1618049
원평시골피순대,전북특별자치도,전주시 덕진구,인후동1가,음식점 > 한식 > 순대,35.82723283,127.1687583
하이퐁,전북특별자치도,전주시 덕진구,인후동1가,음식점 > 아시아음식 > 동남아음식 > 베트남음식,35.8325216,127.1580141
장가네왕족발,전북특별자치도,전주시 완산구,풍남동2가,"음식점 > 한식 > 육류,고기 > 족발,보쌈",35.81931623,127.1525258
솜리치킨 아중점,전북특별자치도,전주시 덕진구,인후동1가,음식점 > 치킨,35.82865977,127.1640225
한오백년추어탕 전주점,전북특별자치도,전주시 덕진구,인후동1가,"음식점 > 한식 > 해물,생선 > 추어",35.82486935,127.1618213
달빛에구운고등어 아중점,전북특별자치도,전주시 덕진구,인후동1가,"음식점 > 한식 > 해물,생선",35.83340525,127.1630937
참숯한우천국 인후점,전북특별자치도,전주시 덕진구,인후동1가,"음식점 > 한식 > 육류,고기",35.82708263,127.1678882
명복이네집,전북특별자치도,전주시 덕진구,인후동1가,음식점 > 한식,35.82733842,127.1627703
푸라닭치킨 전주아중점,전북특별자치도,전주시 덕진구,인후동1가,음식점 > 치킨 > 푸라닭치킨,35.82821729,127.163331
백련시래꽃,전북특별자치도,전주시 덕진구,인후동1가,음식점 > 한식,35.82966374,127.15452
전주할매닭발 아중점,전북특별자치도,전주시 덕진구,인후동1가,"음식점 > 한식 > 육류,고기 > 닭요리",35.82493489,127.1620095
한옥마을물갈비,전북특별자치도,전주시 완산구,풍남동2가,"음식점 > 한식 > 육류,고기 > 갈비",35.81927143,127.1523188
미담덕장 아중점,전북특별자치도,전주시 덕진구,인후동1가,"음식점 > 한식 > 해물,생선",35.82558125,127.1638855
킹콩부대찌개 전주아중점,전북특별자치도,전주시 덕진구,인후동1가,"음식점 > 한식 > 찌개,전골 > 킹콩부대찌개",35.82550423,127.163529
브라더한정식도시락 전주아중점,전북특별자치도,전주시 덕진구,인후동1가,음식점 > 도시락,35.82565455,127.1623441
굽네치킨 전주아중점,전북특별자치도,전주시 덕진구,인후동1가,음식점 > 치킨 > 굽네치킨,35.82788339,127.1649682
솔가숯불갈비 전주본점,전북특별자치도,전주시 덕진구,우아동2가,"음식점 > 한식 > 육류,고기 > 갈비",35.82877688,127.1730556
명성옥 전주본점,전북특별자치도,전주시 덕진구,인후동1가,"음식점 > 한식 > 찌개,전골",35.8283091,127.1627512
전라도음식이야기,전북특별자치도,전주시 덕진구,우아동2가,음식점 > 한식 > 한정식,35.83300576,127.1729342
오목돌바지락손칼국수,전북특별자치도,전주시 덕진구,인후동1가,음식점 > 한식 > 국수 > 칼국수,35.83070886,127.1629686
경성금돼지,전북특별자치도,전주시 덕진구,인후동1가,"음식점 > 한식 > 육류,고기",35.83316138,127.1608155
겐돈소바 전주본점,전북특별자치도,전주시 덕진구,인후동1가,"음식점 > 일식 > 돈까스,우동",35.8347714,127.1658457
신돈조선별관 본점,전북특별자치도,전주시 덕진구,우아동2가,"음식점 > 한식 > 육류,고기 > 갈비",35.83556116,127.1682514
기찻길옆오막살이,전북특별자치도,전주시 덕진구,우아동1가,음식점 > 한식,35.82873748,127.1753685
아중고기마트,전북특별자치도,전주시 덕진구,인후동1가,"음식점 > 한식 > 육류,고기",35.8279785,127.1639569
쭈꾸미신화 아중점,전북특별자치도,전주시 덕진구,인후동1가,"음식점 > 한식 > 해물,생선",35.83322992,127.1621238
바다꽃게탕 아중점,전북특별자치도,전주시 덕진구,우아동2가,"음식점 > 한식 > 해물,생선 > 게,대게",35.82886992,127.1710173
열정마산아구,전북특별자치도,전주시 덕진구,우아동2가,"음식점 > 한식 > 해물,생선 > 아구",35.83180224,127.172542
달빛에구운고등어 아중점,전북특별자치도,전주시 덕진구,인후동1가,"음식점 > 한식 > 해물,생선",35.83340525,127.1630937
원조진안흑돼지,전북특별자치도,전주시 덕진구,우아동2가,"음식점 > 한식 > 육류,고기",35.83172316,127.1723847
유가반점,전북특별자치도,전주시 덕진구,우아동2가,음식점 > 중식 > 중국요리,35.83025259,127.1696479
생선이야기,전북특별자치도,전주시 덕진구,인후동1가,"음식점 > 한식 > 해물,생선",35.83313662,127.1618049
현대옥 아중점,전북특별자치도,전주시 덕진구,인후동1가,음식점 > 한식 > 국밥 > 전주현대옥,35.82605616,127.1645881
항아리손칼국수,전북특별자치도,전주시 덕진구,인후동1가,음식점 > 한식 > 국수 > 칼국수,35.82809256,127.1629257
킹아구해물찜 전주본점,전북특별자치도,전주시 덕진구,인후동1가,"음식점 > 한식 > 해물,생선 > 아구",35.83369028,127.162926
예우랑 아중점,전북특별자치도,전주시 완산구,중노송동,음식점 > 한식,35.82456503,127.1609243
중화요리풍미,전북특별자치도,전주시 덕진구,인후동1가,음식점 > 중식 > 중국요리,35.83465986,127.163052
원평시골피순대,전북특별자치도,전주시 덕진구,인후동1가,음식점 > 한식 > 순대,35.82723283,127.1687583
돔베초밥 아중점,전북특별자치도,전주시 덕진구,우아동2가,"음식점 > 일식 > 초밥,롤",35.8291223,127.1741365
진미면막국수,전북특별자치도,전주시 덕진구,우아동2가,음식점 > 한식 > 국수,35.83339869,127.1729439
중화정,전북특별자치도,전주시 덕진구,인후동1가,음식점 > 중식 > 양꼬치,35.83444951,127.1639768
옛촌막걸리 아중점,전북특별자치도,전주시 덕진구,인후동1가,"음식점 > 술집 > 호프,요리주점 > 탁사발",35.83186121,127.1638918
백김치새싹막회 본점,전북특별자치도,전주시 덕진구,우아동2가,"음식점 > 한식 > 해물,생선 > 회",35.82963287,127.1750673
별미아구찜,전북특별자치도,전주시 덕진구,인후동1가,"음식점 > 한식 > 해물,생선 > 아구",35.8350699,127.163739
남원춘향골추어탕,전북특별자치도,전주시 덕진구,우아동2가,"음식점 > 한식 > 해물,생선 > 추어",35.83646514,127.1682389
흑돈담,전북특별자치도,전주시 덕진구,인후동1가,"음식점 > 한식 > 육류,고기",35.83032108,127.1611373
고산촌,전북특별자치도,전주시 덕진구,우아동2가,"음식점 > 한식 > 육류,고기",35.83628563,127.1683547
양푼집,전북특별자치도,전주시 덕진구,우아동1가,"음식점 > 한식 > 찌개,전골",35.82576957,127.1710328
한옥면옥,전북특별자치도,전주시 덕진구,우아동2가,음식점 > 한식 > 냉면,35.8348909,127.170614
아중각,전북특별자치도,전주시 덕진구,우아동2가,음식점 > 중식 > 중국요리,35.8352919,127.1674539
달인명품호떡,전북특별자치도,전주시 덕진구,인후동1가,음식점 > 간식,35.82739877,127.1686768
조개꽃천지 아중점,전북특별자치도,전주시 덕진구,우아동2가,"음식점 > 한식 > 해물,생선 > 조개",35.83005468,127.1719318
농부며느리,전북특별자치도,전주시 덕진구,우아동2가,음식점 > 한식,35.82961186,127.1715102
신쓰부,전북특별자치도,전주시 덕진구,인후동1가,음식점 > 중식 > 중국요리,35.82777085,127.1681331
이버시숯불갈비 아중본점,전북특별자치도,전주시 덕진구,우아동1가,"음식점 > 한식 > 육류,고기 > 갈비",35.82775321,127.17169
봉화골화로구이 아중점,전북특별자치도,전주시 덕진구,우아동2가,"음식점 > 한식 > 육류,고기 > 갈비",35.82998646,127.1717324
최동민양푼갈비 전주아중1호점,전북특별자치도,전주시 덕진구,우아동2가,"음식점 > 한식 > 육류,고기 > 갈비",35.83031011,127.1722953
참숯한우천국 인후점,전북특별자치도,전주시 덕진구,인후동1가,"음식점 > 한식 > 육류,고기",35.82708263,127.1678882
명륜진사갈비 전주아중점,전북특별자치도,전주시 덕진구,우아동2가,"음식점 > 한식 > 육류,고기 > 갈비 > 명륜진사갈비",35.82794293,127.1707375
도도랑족발보쌈 본점,전북특별자치도,전주시 덕진구,인후동1가,"음식점 > 한식 > 육류,고기 > 족발,보쌈",35.82653403,127.163115
솜리치킨 아중점,전북특별자치도,전주시 덕진구,인후동1가,음식점 > 치킨,35.82865977,127.1640225
전라도음식이야기,전북특별자치도,전주시 덕진구,우아동2가,음식점 > 한식 > 한정식,35.83300576,127.1729342
솔가숯불갈비 전주본점,전북특별자치도,전주시 덕진구,우아동2가,"음식점 > 한식 > 육류,고기 > 갈비",35.82877688,127.1730556
신돈조선별관 본점,전북특별자치도,전주시 덕진구,우아동2가,"음식점 > 한식 > 육류,고기 > 갈비",35.83556116,127.1682514
겐돈소바 전주본점,전북특별자치도,전주시 덕진구,인후동1가,"음식점 > 일식 > 돈까스,우동",35.8347714,127.1658457
열정마산아구,전북특별자치도,전주시 덕진구,우아동2가,"음식점 > 한식 > 해물,생선 > 아구",35.83180224,127.172542
기찻길옆오막살이,전북특별자치도,전주시 덕진구,우아동1가,음식점 > 한식,35.82873748,127.1753685
원조진안흑돼지,전북특별자치도,전주시 덕진구,우아동2가,"음식점 > 한식 > 육류,고기",35.83172316,127.1723847
진미면막국수,전북특별자치도,전주시 덕진구,우아동2가,음식점 > 한식 > 국수,35.83339869,127.1729439
한옥면옥,전북특별자치도,전주시 덕진구,우아동2가,음식점 > 한식 > 냉면,35.8348909,127.170614
남원춘향골추어탕,전북특별자치도,전주시 덕진구,우아동2가,"음식점 > 한식 > 해물,생선 > 추어",35.83646514,127.1682389
고산촌,전북특별자치도,전주시 덕진구,우아동2가,"음식점 > 한식 > 육류,고기",35.83628563,127.1683547
원조남원골추어탕,전북특별자치도,전주시 덕진구,우아동2가,"음식점 > 한식 > 해물,생선 > 추어",35.83441835,127.1708211
향토식당,전북특별자치도,전주시 덕진구,산정동,음식점 > 한식,35.83679255,127.1693442
부평굴요리,전북특별자치도,전주시 덕진구,우아동2가,"음식점 > 한식 > 해물,생선 > 굴,전복",35.83617084,127.1679427
아중각,전북특별자치도,전주시 덕진구,우아동2가,음식점 > 중식 > 중국요리,35.8352919,127.1674539
백김치새싹막회 본점,전북특별자치도,전주시 덕진구,우아동2가,"음식점 > 한식 > 해물,생선 > 회",35.82963287,127.1750673
바다꽃게탕 아중점,전북특별자치도,전주시 덕진구,우아동2가,"음식점 > 한식 > 해물,생선 > 게,대게",35.82886992,127.1710173
돔베초밥 아중점,전북특별자치도,전주시 덕진구,우아동2가,"음식점 > 일식 > 초밥,롤",35.8291223,127.1741365
유가반점,전북특별자치도,전주시 덕진구,우아동2가,음식점 > 중식 > 중국요리,35.83025259,127.1696479
우리밀누룩꽃빵,전북특별자치도,전주시 덕진구,우아동2가,"음식점 > 간식 > 제과,베이커리",35.83370114,127.1725782
여수굴세꼬시,전북특별자치도,전주시 덕진구,우아동2가,"음식점 > 한식 > 해물,생선 > 굴,전복",35.83680164,127.1680016
군산막회,전북특별자치도,전주시 덕진구,산정동,"음식점 > 한식 > 해물,생선 > 회",35.83628356,127.1698257
경성금돼지,전북특별자치도,전주시 덕진구,인후동1가,"음식점 > 한식 > 육류,고기",35.83316138,127.1608155
달빛에구운고등어 아중점,전북특별자치도,전주시 덕진구,인후동1가,"음식점 > 한식 > 해물,생선",35.83340525,127.1630937
쭈꾸미신화 아중점,전북특별자치도,전주시 덕진구,인후동1가,"음식점 > 한식 > 해물,생선",35.83322992,127.1621238
88콩나물국밥 고려병원점,전북특별자치도,전주시 덕진구,산정동,음식점 > 한식 > 국밥,35.83893854,127.167342
핸더 아중점,전북특별자치도,전주시 덕진구,우아동2가,음식점 > 양식 > 이탈리안,35.82924346,127.1744887
쌈밥마을고기나라,전북특별자치도,전주시 덕진구,산정동,음식점 > 한식 > 쌈밥,35.83686558,127.1699597
최동민양푼갈비 전주아중1호점,전북특별자치도,전주시 덕진구,우아동2가,"음식점 > 한식 > 육류,고기 > 갈비",35.83031011,127.1722953
중화요리풍미,전북특별자치도,전주시 덕진구,인후동1가,음식점 > 중식 > 중국요리,35.83465986,127.163052
양평해장국 아중점,전북특별자치도,전주시 덕진구,우아동2가,음식점 > 한식 > 해장국,35.8354135,127.1655527
별미아구찜,전북특별자치도,전주시 덕진구,인후동1가,"음식점 > 한식 > 해물,생선 > 아구",35.8350699,127.163739
조개꽃천지 아중점,전북특별자치도,전주시 덕진구,우아동2가,"음식점 > 한식 > 해물,생선 > 조개",35.83005468,127.1719318
김돈이 아중점,전북특별자치도,전주시 덕진구,우아동2가,"음식점 > 한식 > 육류,고기",35.8356439,127.1664342
금빛한우,전북특별자치도,전주시 덕진구,우아동2가,"음식점 > 한식 > 육류,고기",35.83658011,127.1672253
오목돌바지락손칼국수,전북특별자치도,전주시 덕진구,인후동1가,음식점 > 한식 > 국수 > 칼국수,35.83070886,127.1629686
봉화골화로구이 아중점,전북특별자치도,전주시 덕진구,우아동2가,"음식점 > 한식 > 육류,고기 > 갈비",35.82998646,127.1717324
중화정,전북특별자치도,전주시 덕진구,인후동1가,음식점 > 중식 > 양꼬치,35.83444951,127.1639768
오동태 마을 아중본점,전북특별자치도,전주시 덕진구,우아동2가,음식점 > 한식,35.83575093,127.166596
명성옥 전주본점,전북특별자치도,전주시 덕진구,인후동1가,"음식점 > 한식 > 찌개,전골",35.8283091,127.1627512
60계 전주아중인후우아점,전북특별자치도,전주시 덕진구,우아동2가,음식점 > 치킨 > 60계,35.83547959,127.1672916
생선이야기,전북특별자치도,전주시 덕진구,인후동1가,"음식점 > 한식 > 해물,생선",35.83313662,127.1618049
팔미가,전북특별자치도,전주시 덕진구,우아동2가,"음식점 > 한식 > 육류,고기 > 닭요리",35.83223663,127.1738047
농부며느리,전북특별자치도,전주시 덕진구,우아동2가,음식점 > 한식,35.82961186,127.1715102
훔친수산풍천민물장어,전북특별자치도,전주시 덕진구,우아동2가,"음식점 > 한식 > 해물,생선 > 장어",35.83605233,127.1676171
전라도음식이야기,전북특별자치도,전주시 덕진구,우아동2가,음식점 > 한식 > 한정식,35.83300576,127.1729342
신돈조선별관 본점,전북특별자치도,전주시 덕진구,우아동2가,"음식점 > 한식 > 육류,고기 > 갈비",35.83556116,127.1682514
진미면막국수,전북특별자치도,전주시 덕진구,우아동2가,음식점 > 한식 > 국수,35.83339869,127.1729439
남원춘향골추어탕,전북특별자치도,전주시 덕진구,우아동2가,"음식점 > 한식 > 해물,생선 > 추어",35.83646514,127.1682389
향토식당,전북특별자치도,전주시 덕진구,산정동,음식점 > 한식,35.83679255,127.1693442
한옥면옥,전북특별자치도,전주시 덕진구,우아동2가,음식점 > 한식 > 냉면,35.8348909,127.170614
고산촌,전북특별자치도,전주시 덕진구,우아동2가,"음식점 > 한식 > 육류,고기",35.83628563,127.1683547
열정마산아구,전북특별자치도,전주시 덕진구,우아동2가,"음식점 > 한식 > 해물,생선 > 아구",35.83180224,127.172542
흑가든흑염소전문,전북특별자치도,전주시 덕진구,산정동,"음식점 > 한식 > 사철탕,영양탕",35.84172866,127.1762882
원조진안흑돼지,전북특별자치도,전주시 덕진구,우아동2가,"음식점 > 한식 > 육류,고기",35.83172316,127.1723847
원조남원골추어탕,전북특별자치도,전주시 덕진구,우아동2가,"음식점 > 한식 > 해물,생선 > 추어",35.83441835,127.1708211
부평굴요리,전북특별자치도,전주시 덕진구,우아동2가,"음식점 > 한식 > 해물,생선 > 굴,전복",35.83617084,127.1679427
88콩나물국밥 고려병원점,전북특별자치도,전주시 덕진구,산정동,음식점 > 한식 > 국밥,35.83893854,127.167342
쌈밥마을고기나라,전북특별자치도,전주시 덕진구,산정동,음식점 > 한식 > 쌈밥,35.83686558,127.1699597
군산막회,전북특별자치도,전주시 덕진구,산정동,"음식점 > 한식 > 해물,생선 > 회",35.83628356,127.1698257
우리밀누룩꽃빵,전북특별자치도,전주시 덕진구,우아동2가,"음식점 > 간식 > 제과,베이커리",35.83370114,127.1725782
여수굴세꼬시,전북특별자치도,전주시 덕진구,우아동2가,"음식점 > 한식 > 해물,생선 > 굴,전복",35.83680164,127.1680016
황소명품곰탕,전북특별자치도,전주시 덕진구,산정동,음식점 > 한식 > 곰탕,35.84214712,127.1760954
아중각,전북특별자치도,전주시 덕진구,우아동2가,음식점 > 중식 > 중국요리,35.8352919,127.1674539
감자탕나라,전북특별자치도,전주시 덕진구,산정동,음식점 > 한식 > 감자탕,35.83672713,127.1697148
성완각,전북특별자치도,전주시 덕진구,산정동,음식점 > 중식 > 중국요리,35.83740676,127.1709338
금빛한우,전북특별자치도,전주시 덕진구,우아동2가,"음식점 > 한식 > 육류,고기",35.83658011,127.1672253
아중천민물장어한우,전북특별자치도,전주시 덕진구,산정동,"음식점 > 한식 > 해물,생선 > 장어",35.83482128,127.1720339
팔미가,전북특별자치도,전주시 덕진구,우아동2가,"음식점 > 한식 > 육류,고기 > 닭요리",35.83223663,127.1738047
훔친수산풍천민물장어,전북특별자치도,전주시 덕진구,우아동2가,"음식점 > 한식 > 해물,생선 > 장어",35.83605233,127.1676171
전주순두부,전북특별자치도,전주시 덕진구,산정동,음식점 > 한식 > 두부전문점,35.84096298,127.1697593
60계 전주아중인후우아점,전북특별자치도,전주시 덕진구,우아동2가,음식점 > 치킨 > 60계,35.83547959,127.1672916
김돈이 아중점,전북특별자치도,전주시 덕진구,우아동2가,"음식점 > 한식 > 육류,고기",35.8356439,127.1664342
오동태 마을 아중본점,전북특별자치도,전주시 덕진구,우아동2가,음식점 > 한식,35.83575093,127.166596
오복식당,전북특별자치도,전주시 덕진구,산정동,음식점 > 한식,35.83788638,127.1701899
고창해성수산 사계절왕새우직판장,전북특별자치도,전주시 덕진구,우아동2가,음식점 > 양식 > 해산물,35.83582218,127.1691396
진안꺼먹돼지 연탄생구이,전북특별자치도,전주시 덕진구,산정동,"음식점 > 한식 > 육류,고기",35.83744099,127.1696721
용궁미가,전북특별자치도,전주시 덕진구,우아동2가,"음식점 > 한식 > 해물,생선 > 회",35.83561313,127.1678253
양평해장국 아중점,전북특별자치도,전주시 덕진구,우아동2가,음식점 > 한식 > 해장국,35.8354135,127.1655527
남쪽나라,전북특별자치도,전주시 덕진구,우아동2가,음식점 > 한식,35.83704351,127.1677631
모닝토스트김밥,전북특별자치도,전주시 덕진구,산정동,음식점 > 분식,35.84156563,127.1731166
유정본가설렁탕,전북특별자치도,전주시 덕진구,산정동,음식점 > 한식 > 설렁탕,35.83916514,127.1677144
국수연,전북특별자치도,전주시 덕진구,우아동2가,음식점 > 한식 > 국수,35.83441232,127.1712527
율담정육식당 아중직영점,전북특별자치도,전주시 덕진구,인후동1가,"음식점 > 한식 > 육류,고기",35.83527322,127.1666249
천안당호두과자 전주점,전북특별자치도,전주시 덕진구,산정동,"음식점 > 간식 > 제과,베이커리",35.84030259,127.1702316
아리랑88통닭,전북특별자치도,전주시 덕진구,우아동2가,음식점 > 치킨,35.83580182,127.1669392
금화왕돈까스 전주산정점,전북특별자치도,전주시 덕진구,산정동,"음식점 > 일식 > 돈까스,우동 > 금화왕돈까스",35.84287253,127.1666917
낭만의광장,전북특별자치도,전주시 덕진구,우아동2가,"음식점 > 한식 > 해물,생선 > 회",35.83585173,127.168636
죽도민물매운탕,전북특별자치도,전주시 덕진구,우아동2가,"음식점 > 한식 > 해물,생선 > 매운탕,해물탕",35.83250923,127.1722591
삿뽀로우동집,전북특별자치도,전주시 덕진구,우아동2가,"음식점 > 일식 > 돈까스,우동",35.83565526,127.1679859
흑가든흑염소전문,전북특별자치도,전주시 덕진구,산정동,"음식점 > 한식 > 사철탕,영양탕",35.84172866,127.1762882
황소명품곰탕,전북특별자치도,전주시 덕진구,산정동,음식점 > 한식 > 곰탕,35.84214712,127.1760954
산정집,전북특별자치도,전주시 덕진구,금상동,음식점 > 한식,35.84754126,127.1850095
모닝토스트김밥,전북특별자치도,전주시 덕진구,산정동,음식점 > 분식,35.84156563,127.1731166
무진장수산,전북특별자치도,전주시 덕진구,산정동,"음식점 > 한식 > 해물,생선 > 회",35.84240297,127.173694
신바람만두찐빵,전북특별자치도,전주시 덕진구,산정동,음식점 > 분식,35.84151824,127.1728586
이웃사촌,전북특별자치도,전주시 덕진구,산정동,음식점 > 한식,35.8412925,127.1712653
산정집,전북특별자치도,전주시 덕진구,금상동,음식점 > 한식,35.84754126,127.1850095
청마루뼈다귀,전북특별자치도,전주시 덕진구,금상동,음식점 > 한식 > 감자탕,35.85372057,127.19396
한옥집,전북특별자치도,전주시 덕진구,금상동,"음식점 > 한식 > 육류,고기 > 갈비",35.8541444,127.1949264
청마루뼈다귀,전북특별자치도,전주시 덕진구,금상동,음식점 > 한식 > 감자탕,35.85372057,127.19396
산정집,전북특별자치도,전주시 덕진구,금상동,음식점 > 한식,35.84754126,127.1850095
한옥집,전북특별자치도,전주시 덕진구,금상동,"음식점 > 한식 > 육류,고기 > 갈비",35.8541444,127.1949264
청마루뼈다귀,전북특별자치도,전주시 덕진구,금상동,음식점 > 한식 > 감자탕,35.85372057,127.19396
